{"0":{"name":"Jackson Hole","latitude":43.582767,"longitude":-110.821999,"wban":24166},"1":{"name":"Mojave National Preserve","latitude":35.141689,"longitude":-115.510399,"wban":23192},"2":{"name":"Joshua Tree National Park","latitude":33.881866,"longitude":-115.90065,"wban":23172},"3":{"name":"Buffalo National River","latitude":35.985512,"longitude":-92.757652,"wban":53918},"4":{"name":"Hot Springs National Park","latitude":34.52153,"longitude":-93.042267,"wban":3962},"5":{"name":"Kartchner Caverns State Park","latitude":31.837551,"longitude":-110.347382,"wban":53146},"6":{"name":"Navajo Nation Reservation","latitude":36.075321,"longitude":-109.19693,"wban":3029},"7":{"name":"Sipsey Wilderness","latitude":34.332035,"longitude":-87.434799,"wban":63895},"8":{"name":"Wrangell-St. Elias National Park & Preserve","latitude":61.710445,"longitude":-142.985687,"wban":46404},"9":{"name":"Lake Clark National Park and Preserve","latitude":60.412697,"longitude":-154.323502,"wban":26546},"10":{"name":"Katmai National Park and Preserve","latitude":58.597813,"longitude":-154.693756,"wban":25521},"11":{"name":"Glacier Bay National Park and Preserve","latitude":58.665806,"longitude":-136.900208,"wban":25316},"12":{"name":"Turtle Mountain","latitude":48.852882,"longitude":-99.803535,"wban":94928},"13":{"name":"Odiorne Point State Park","latitude":43.049023,"longitude":-70.720192,"wban":4743},"14":{"name":"Channel Islands National Park","latitude":33.998028,"longitude":-119.772949,"wban":53152},"15":{"name":"Maplewood State Park","latitude":46.520966,"longitude":-95.951576,"wban":94966},"16":{"name":"Bear Butte State Park","latitude":44.475296,"longitude":-103.424309,"wban":24006},"17":{"name":"Okefenokee National Wildlife Refuge","latitude":30.77323,"longitude":-82.292732,"wban":63890},"18":{"name":"Denali National Park and Preserve","latitude":63.129887,"longitude":-151.197418,"wban":96401},"19":{"name":"Acadia National Park","latitude":44.338974,"longitude":-68.27343,"wban":14616},"20":{"name":"Topanga State Park","latitude":34.093182,"longitude":-118.587318,"wban":93197},"21":{"name":"Gates of the Arctic National Park and Preserve","latitude":67.915199,"longitude":-153.46373,"wban":26542},"22":{"name":"Kaloko-Honok?hau National Historical Park","latitude":19.678328,"longitude":-156.020477,"wban":21510},"23":{"name":"Pedernales Falls State Park","latitude":30.308069,"longitude":-98.257729,"wban":166},"24":{"name":"Whiskeytown National Recreation Area","latitude":40.633495,"longitude":-122.564247,"wban":4222},"25":{"name":"Mesa Verde National Park","latitude":37.230873,"longitude":-108.461838,"wban":3061},"26":{"name":"Arches National Park","latitude":38.733082,"longitude":-109.592514,"wban":93075},"27":{"name":"Mount Rainier National Park","latitude":46.879967,"longitude":-121.726906,"wban":24237},"28":{"name":"Kenai Fjords National Park","latitude":60.043777,"longitude":-149.81636,"wban":26438},"29":{"name":"Anahuac National Wildlife Refuge","latitude":29.6103,"longitude":-94.449081,"wban":12923},"30":{"name":"Bandelier National Monument","latitude":35.767288,"longitude":-106.311607,"wban":93091},"31":{"name":"Summit Bechtel Reserve","latitude":37.916035,"longitude":-81.123047,"wban":3872},"32":{"name":"Yellowstone National Park","latitude":44.427895,"longitude":-110.588379,"wban":94173},"33":{"name":"Rothrock State Forest","latitude":40.720585,"longitude":-77.826965,"wban":54739},"34":{"name":"Great Smoky Mountains National Park","latitude":35.611763,"longitude":-83.489548,"wban":63844},"35":{"name":"Zion National Park","latitude":37.317207,"longitude":-113.022537,"wban":93198},"36":{"name":"Yosemite National Park","latitude":37.865101,"longitude":-119.53833,"wban":53150},"37":{"name":"Yellowstone National Park","latitude":44.429764,"longitude":-110.584663,"wban":94173},"38":{"name":"Haleakal? National Park","latitude":20.701283,"longitude":-156.173325,"wban":22525},"39":{"name":"Malibu Creek State Park","latitude":34.105156,"longitude":-118.731316,"wban":93197},"40":{"name":"Manti-La Sal National Forest","latitude":39.18705,"longitude":-111.37989,"wban":53149},"41":{"name":"Cherry Creek State Park","latitude":39.639973,"longitude":-104.831863,"wban":93032},"42":{"name":"Kissimmee Prairie Preserve State Park","latitude":27.612417,"longitude":-81.053383,"wban":92827},"43":{"name":"Garden of Gods","latitude":38.87384,"longitude":-104.886665,"wban":93065},"44":{"name":"Petrified Forest National Park","latitude":34.909988,"longitude":-109.806793,"wban":3077},"45":{"name":"Fort Berthold Indian Reservation","latitude":47.68388,"longitude":-102.354126,"wban":94041},"46":{"name":"Chattahoochee National Forest","latitude":34.765972,"longitude":-84.143517,"wban":63811},"47":{"name":"Little Sandy National Wildlife Refuge","latitude":32.590797,"longitude":-95.273666,"wban":53978},"48":{"name":"Siuslaw National Forest","latitude":44.358715,"longitude":-123.829994,"wban":4236},"49":{"name":"Kings Canyon National Park","latitude":36.887856,"longitude":-118.555145,"wban":23157},"50":{"name":"Ruffner Mountain Nature Center","latitude":33.55899,"longitude":-86.707016,"wban":13876},"51":{"name":"Yellowstone National Park","latitude":44.427284,"longitude":-110.584389,"wban":94173},"52":{"name":"Kings Mountain State Park","latitude":35.130459,"longitude":-81.345444,"wban":53870},"53":{"name":"Honolulu Watershed Forest Preserve","latitude":21.363251,"longitude":-157.781265,"wban":22521},"54":{"name":"Oleta River State Park","latitude":25.921614,"longitude":-80.144402,"wban":92809},"55":{"name":"Grant Park","latitude":41.876465,"longitude":-87.621887,"wban":94866},"56":{"name":"Wisconsin Interstate State Park","latitude":45.398449,"longitude":-92.645126,"wban":54912},"57":{"name":"Bridge Creek Wildlife Area","latitude":45.043449,"longitude":-118.949318,"wban":24152},"58":{"name":"Willamette National Forest","latitude":44.060471,"longitude":-122.091736,"wban":24230},"59":{"name":"Golden Gate Canyon State Park","latitude":39.814339,"longitude":-105.395622,"wban":3065},"60":{"name":"William F Hayden Green Mountain Park","latitude":39.702827,"longitude":-105.175636,"wban":3065},"61":{"name":"Cades Cove","latitude":35.59367,"longitude":-83.824997,"wban":13891},"62":{"name":"Lantz Farm and Nature Preserve","latitude":39.516754,"longitude":-80.649948,"wban":3802},"63":{"name":"Myakka State Forest","latitude":26.988386,"longitude":-82.286552,"wban":12871},"64":{"name":"Lake Eola Park","latitude":28.545021,"longitude":-81.372856,"wban":12841},"65":{"name":"Gulf State Park","latitude":30.262793,"longitude":-87.636337,"wban":63885},"66":{"name":"Egypt Valley Wildlife Area","latitude":40.115486,"longitude":-81.11409,"wban":14894},"67":{"name":"Kennesaw Mountain National Battlefield Park","latitude":33.976376,"longitude":-84.579163,"wban":63813},"68":{"name":"Shenandoah National Park","latitude":38.700516,"longitude":-78.292694,"wban":13731},"69":{"name":"Ricketts Glen State Park","latitude":41.339184,"longitude":-76.290436,"wban":14777},"70":{"name":"El Dorado State Park","latitude":37.866047,"longitude":-96.756935,"wban":3974},"71":{"name":"Polihale State Park","latitude":22.079357,"longitude":-159.761642,"wban":22526},"72":{"name":"Lake Wateree State Recreation Area","latitude":34.375179,"longitude":-80.863495,"wban":3858},"73":{"name":"Kekaha Kai State Park","latitude":19.788027,"longitude":-156.023453,"wban":21510},"74":{"name":"National Bison Range","latitude":47.342545,"longitude":-114.209747,"wban":24153},"75":{"name":"Castlewood Canyon State Park","latitude":39.319424,"longitude":-104.730606,"wban":3040},"76":{"name":"Hillman State Park","latitude":40.453739,"longitude":-80.400864,"wban":94823},"77":{"name":"Little Big Econ State Forest","latitude":28.673721,"longitude":-81.104507,"wban":12841},"78":{"name":"Eagle Bluffs Conservation Area","latitude":38.848934,"longitude":-92.431839,"wban":13983},"79":{"name":"Everglades National Park","latitude":25.286615,"longitude":-80.898651,"wban":12853},"80":{"name":"Mount Mitchell State Park","latitude":35.768803,"longitude":-82.306137,"wban":53877},"81":{"name":"Mt. Hood National Forest","latitude":45.45435,"longitude":-121.933136,"wban":24238},"82":{"name":"Island Park","latitude":44.429733,"longitude":-111.440849,"wban":94163},"83":{"name":"Redwood National Park","latitude":41.213181,"longitude":-124.004631,"wban":24283},"84":{"name":"Yellowstone National Park","latitude":44.423691,"longitude":-110.588516,"wban":94173}}